RSSI,LQI,Time,Yaw,Pitch,Roll,ax,ay,az,Latitude,Longitude,Altitude,Satellites,Channel_0,Channel_1,Channel_2,Channel_3,Channel_4,Channel_5,Channel_6,Channel_7,Channel_8,Channel_9,Mode
-40,131,241871,350.88,4.31,-3.13,0.14,0.05,-0.11,0.0,0.0,0.0,0,1569,1817,1000,1500,1569,1000,1000,1000,1000,1000,255
-41,131,241888,350.88,4.31,-3.13,0.13,0.04,-0.06,0.0,0.0,0.0,0,1569,1817,1000,1500,1569,1000,1000,1000,1000,1000,255
-42,131,241918,350.88,4.31,-3.13,0.12,0.03,-0.11,0.0,0.0,0.0,0,1569,1818,1000,1500,1569,1000,1000,1000,1000,1000,255
-42,133,241949,350.88,4.31,-3.13,0.13,0.03,-0.07,0.0,0.0,0.0,0,1569,1818,1000,1500,1569,1000,1000,1000,1000,1000,255
-42,130,241964,350.88,4.31,-3.13,0.11,0.02,-0.07,0.0,0.0,0.0,0,1569,1817,1000,1500,1569,1000,1000,1000,1000,1000,255
-39,129,241993,350.88,4.31,-3.13,0.15,0.02,-0.08,0.0,0.0,0.0,0,1568,1817,1000,1500,1568,1000,1000,1000,1000,1000,255
-42,131,242039,350.88,4.31,-3.13,0.13,0.04,-0.1,0.0,0.0,0.0,0,1568,1817,1000,1500,1568,1000,1000,1000,1000,1000,255
-42,131,242056,350.88,4.31,-3.13,0.14,0.03,-0.07,0.0,0.0,0.0,0,1569,1818,1000,1500,1569,1000,1000,1000,1000,1000,255
-42,131,242087,350.88,4.31,-3.13,0.13,0.02,-0.1,0.0,0.0,0.0,0,1569,1817,1000,1500,1569,1000,1000,1000,1000,1000,255
-41,130,242118,350.88,4.31,-3.13,0.12,0.04,-0.11,0.0,0.0,0.0,0,1569,1817,1000,1500,1569,1000,1000,1000,1000,1000,255
-41,131,242134,350.88,4.31,-3.13,0.14,0.03,-0.1,0.0,0.0,0.0,0,1570,1817,1000,1500,1570,1000,1000,1000,1000,1000,255
-40,130,242163,350.88,4.31,-3.13,0.14,0.06,-0.09,0.0,0.0,0.0,0,1568,1818,1000,1500,1568,1000,1000,1000,1000,1000,255
-38,130,242193,350.88,4.31,-3.13,0.11,0.02,-0.11,0.0,0.0,0.0,0,1569,1818,1000,1500,1569,1000,1000,1000,1000,1000,255
-39,133,242217,350.88,4.31,-3.13,0.14,0.02,-0.1,0.0,0.0,0.0,0,1569,1818,1000,1500,1569,1000,1000,1000,1000,1000,255
-39,134,242240,350.88,4.31,-3.13,0.15,0.04,-0.09,0.0,0.0,0.0,0,1569,1817,1000,1500,1569,1000,1000,1000,1000,1000,255
-37,130,242271,350.88,4.31,-3.13,0.13,0.01,-0.08,0.0,0.0,0.0,0,1569,1817,1000,1500,1569,1000,1000,1000,1000,1000,255
-39,130,242288,350.88,4.31,-3.13,0.14,0.03,-0.1,0.0,0.0,0.0,0,1569,1818,1000,1500,1569,1000,1000,1000,1000,1000,255
-39,128,242319,350.88,4.31,-3.13,0.14,0.03,-0.06,0.0,0.0,0.0,0,1568,1817,1000,1500,1568,1000,1000,1000,1000,1000,255
-39,130,242349,350.88,4.31,-3.13,0.13,0.04,-0.09,0.0,0.0,0.0,0,1569,1818,1000,1500,1569,1000,1000,1000,1000,1000,255
-38,130,242364,350.88,4.31,-3.13,0.13,0.04,-0.08,0.0,0.0,0.0,0,1568,1818,1000,1500,1568,1000,1000,1000,1000,1000,255
-38,133,242394,350.88,4.31,-3.13,0.15,0.04,-0.07,0.0,0.0,0.0,0,1569,1818,1000,1500,1569,1000,1000,1000,1000,1000,255
-38,129,242428,350.88,4.31,-3.13,0.12,0.0,-0.09,0.0,0.0,0.0,0,1569,1817,1000,1500,1569,1000,1000,1000,1000,1000,255
-37,129,242443,350.88,4.31,-3.13,0.13,0.03,-0.1,0.0,0.0,0.0,0,1569,1818,1000,1500,1569,1000,1000,1000,1000,1000,255
-36,131,242475,350.88,4.31,-3.13,0.14,0.03,-0.09,0.0,0.0,0.0,0,1569,1818,1000,1500,1569,1000,1000,1000,1000,1000,255
-36,133,242506,350.88,4.31,-3.13,0.12,0.06,-0.08,0.0,0.0,0.0,0,1568,1817,1000,1500,1568,1000,1000,1000,1000,1000,255
-35,130,242521,350.88,4.31,-3.13,0.13,0.03,-0.11,0.0,0.0,0.0,0,1569,1817,1000,1500,1569,1000,1000,1000,1000,1000,255
-34,130,242552,350.88,4.31,-3.13,0.14,0.02,-0.07,0.0,0.0,0.0,0,1569,1818,1000,1500,1569,1000,1000,1000,1000,1000,255
-34,132,242584,350.88,4.31,-3.13,0.14,0.05,-0.11,0.0,0.0,0.0,0,1568,1817,1000,1500,1568,1000,1000,1000,1000,1000,255
-33,131,242599,350.88,4.31,-3.13,0.14,0.03,-0.08,0.0,0.0,0.0,0,1569,1818,1000,1500,1569,1000,1000,1000,1000,1000,255
-32,130,242635,350.88,4.31,-3.13,0.12,0.04,-0.08,0.0,0.0,0.0,0,1569,1818,1000,1500,1569,1000,1000,1000,1000,1000,255
-32,130,242651,350.88,4.31,-3.13,0.14,0.05,-0.09,0.0,0.0,0.0,0,1569,1817,1000,1500,1569,1000,1000,1000,1000,1000,255
-31,130,242681,350.88,4.31,-3.13,0.13,0.06,-0.11,0.0,0.0,0.0,0,1569,1817,1000,1500,1569,1000,1000,1000,1000,1000,255
-32,130,242710,350.88,4.31,-3.13,0.13,0.04,-0.1,0.0,0.0,0.0,0,1569,1818,1000,1500,1569,1000,1000,1000,1000,1000,255
-32,131,242727,350.88,4.31,-3.13,0.14,0.03,-0.12,0.0,0.0,0.0,0,1569,1816,1000,1500,1569,1000,1000,1000,1000,1000,255
-32,130,242757,350.88,4.31,-3.13,0.13,0.03,-0.09,0.0,0.0,0.0,0,1568,1818,1000,1500,1568,1000,1000,1000,1000,1000,255
-32,132,242789,350.88,4.31,-3.13,0.14,0.03,-0.09,0.0,0.0,0.0,0,1569,1817,1000,1500,1569,1000,1000,1000,1000,1000,255
-32,129,242835,350.88,4.31,-3.13,0.13,0.01,-0.11,0.0,0.0,0.0,0,1568,1817,1000,1500,1568,1000,1000,1000,1000,1000,255
-32,132,242849,350.88,4.31,-3.13,0.13,0.02,-0.09,0.0,0.0,0.0,0,1569,1818,1000,1500,1569,1000,1000,1000,1000,1000,255
-32,130,242880,350.88,4.31,-3.13,0.14,0.02,-0.07,0.0,0.0,0.0,0,1569,1818,1000,1500,1569,1000,1000,1000,1000,1000,255
-33,131,242909,350.88,4.31,-3.13,0.14,0.03,-0.08,0.0,0.0,0.0,0,1569,1818,1000,1500,1569,1000,1000,1000,1000,1000,255
-32,131,242925,350.88,4.31,-3.13,0.14,0.03,-0.09,0.0,0.0,0.0,0,1569,1818,1000,1500,1569,1000,1000,1000,1000,1000,255
-33,130,242957,350.88,4.31,-3.13,0.12,0.04,-0.08,0.0,0.0,0.0,0,1569,1818,1000,1500,1569,1000,1000,1000,1000,1000,255
-33,130,242988,350.88,4.31,-3.13,0.13,0.04,-0.11,0.0,0.0,0.0,0,1569,1817,1000,1500,1569,1000,1000,1000,1000,1000,255
-33,129,243003,350.88,4.31,-3.13,0.14,0.02,-0.09,0.0,0.0,0.0,0,1569,1818,1000,1500,1569,1000,1000,1000,1000,1000,255
-33,129,243031,350.88,4.31,-3.13,0.14,0.03,-0.08,0.0,0.0,0.0,0,1569,1818,1000,1500,1569,1000,1000,1000,1000,1000,255
-33,132,243059,350.88,4.31,-3.13,0.16,0.02,-0.11,0.0,0.0,0.0,0,1569,1817,1000,1500,1569,1000,1000,1000,1000,1000,255
-33,129,243090,350.88,4.31,-3.13,0.14,0.03,-0.11,0.0,0.0,0.0,0,1569,1817,1000,1500,1569,1000,1000,1000,1000,1000,255
-32,130,243107,350.88,4.31,-3.13,0.15,0.04,-0.07,0.0,0.0,0.0,0,1569,1818,1000,1500,1569,1000,1000,1000,1000,1000,255
-32,129,243138,350.88,4.31,-3.13,0.15,0.05,-0.1,0.0,0.0,0.0,0,1569,1818,1000,1500,1569,1000,1000,1000,1000,1000,255
-34,132,243169,350.88,4.31,-3.13,0.13,0.05,-0.11,0.0,0.0,0.0,0,1569,1818,1000,1500,1569,1000,1000,1000,1000,1000,255
-34,130,243186,350.88,4.31,-3.13,0.14,0.05,-0.11,0.0,0.0,0.0,0,1569,1818,1000,1500,1569,1000,1000,1000,1000,1000,255
-34,130,243229,350.88,4.31,-3.13,0.15,0.04,-0.1,0.0,0.0,0.0,0,1569,1818,1000,1500,1569,1000,1000,1000,1000,1000,255
-35,130,243245,350.88,4.31,-3.13,0.13,0.04,-0.08,0.0,0.0,0.0,0,1569,1818,1000,1500,1569,1000,1000,1000,1000,1000,255
-35,129,243276,350.88,4.31,-3.13,0.14,0.04,-0.11,0.0,0.0,0.0,0,1569,1818,1000,1500,1569,1000,1000,1000,1000,1000,255
-35,130,243307,350.88,4.31,-3.13,0.15,0.03,-0.11,0.0,0.0,0.0,0,1569,1818,1000,1500,1569,1000,1000,1000,1000,1000,255
-33,131,243321,350.88,4.31,-3.13,0.13,0.04,-0.11,0.0,0.0,0.0,0,1569,1817,1000,1500,1569,1000,1000,1000,1000,1000,255
-35,131,243353,350.88,4.31,-3.13,0.14,0.04,-0.07,0.0,0.0,0.0,0,1569,1817,1000,1500,1569,1000,1000,1000,1000,1000,255
-36,130,243386,350.88,4.31,-3.13,0.15,0.04,-0.11,0.0,0.0,0.0,0,1569,1818,1000,1500,1569,1000,1000,1000,1000,1000,255
-36,130,243399,350.88,4.31,-3.13,0.11,0.02,-0.08,0.0,0.0,0.0,0,1569,1818,1000,1500,1569,1000,1000,1000,1000,1000,255
-37,131,243429,350.88,4.31,-3.13,0.14,0.04,-0.1,0.0,0.0,0.0,0,1568,1818,1000,1500,1568,1000,1000,1000,1000,1000,255
-40,132,243459,350.88,4.31,-3.13,0.12,0.04,-0.09,0.0,0.0,0.0,0,1569,1818,1000,1500,1569,1000,1000,1000,1000,1000,255
-41,130,243475,350.88,4.31,-3.13,0.14,0.03,-0.12,0.0,0.0,0.0,0,1569,1817,1000,1500,1569,1000,1000,1000,1000,1000,255
-43,131,243506,350.88,4.31,-3.13,0.13,0.03,-0.09,0.0,0.0,0.0,0,1569,1817,1000,1500,1569,1000,1000,1000,1000,1000,255
-42,132,243537,350.88,4.31,-3.13,0.16,0.04,-0.1,0.0,0.0,0.0,0,1569,1818,1000,1500,1569,1000,1000,1000,1000,1000,255
-41,131,243553,350.88,4.31,-3.13,0.14,0.04,-0.09,0.0,0.0,0.0,0,1569,1818,1000,1500,1569,1000,1000,1000,1000,1000,255
-39,130,243584,350.88,4.31,-3.13,0.13,0.02,-0.11,0.0,0.0,0.0,0,1569,1818,1000,1500,1569,1000,1000,1000,1000,1000,255
-38,129,243629,350.88,4.31,-3.13,0.14,0.05,-0.09,0.0,0.0,0.0,0,1569,1818,1000,1500,1569,1000,1000,1000,1000,1000,255
-37,130,243643,350.88,4.31,-3.13,0.13,0.02,-0.11,0.0,0.0,0.0,0,1569,1818,1000,1500,1569,1000,1000,1000,1000,1000,255
-36,132,243675,350.88,4.31,-3.13,0.14,0.05,-0.08,0.0,0.0,0.0,0,1569,1818,1000,1500,1569,1000,1000,1000,1000,1000,255
-35,130,243706,350.88,4.31,-3.13,0.13,0.03,-0.1,0.0,0.0,0.0,0,1569,1818,1000,1500,1569,1000,1000,1000,1000,1000,255
-35,130,243721,350.88,4.31,-3.13,0.13,0.03,-0.12,0.0,0.0,0.0,0,1569,1817,1000,1500,1569,1000,1000,1000,1000,1000,255
-34,132,243752,350.88,4.31,-3.13,0.14,0.03,-0.09,0.0,0.0,0.0,0,1569,1818,1000,1500,1569,1000,1000,1000,1000,1000,255
-34,130,243784,350.88,4.31,-3.13,0.15,0.04,-0.1,0.0,0.0,0.0,0,1569,1818,1000,1500,1569,1000,1000,1000,1000,1000,255
-33,133,243799,350.88,4.31,-3.13,0.13,0.05,-0.09,0.0,0.0,0.0,0,1569,1818,1000,1500,1569,1000,1000,1000,1000,1000,255
-33,132,243829,350.88,4.31,-3.13,0.14,0.03,-0.1,0.0,0.0,0.0,0,1569,1817,1000,1500,1569,1000,1000,1000,1000,1000,255
-32,130,243858,350.88,4.31,-3.13,0.15,0.03,-0.1,0.0,0.0,0.0,0,1569,1818,1000,1500,1569,1000,1000,1000,1000,1000,255
-32,129,243875,350.88,4.31,-3.13,0.14,0.03,-0.11,0.0,0.0,0.0,0,1569,1818,1000,1500,1569,1000,1000,1000,1000,1000,255
-32,130,243906,350.88,4.31,-3.13,0.15,0.04,-0.09,0.0,0.0,0.0,0,1569,1818,1000,1500,1569,1000,1000,1000,1000,1000,255
-33,129,243937,350.88,4.31,-3.13,0.13,0.07,-0.28,0.0,0.0,0.0,0,1573,1813,1000,1500,1573,1000,1000,1000,1000,1000,255
-30,130,243953,350.88,4.31,-3.13,0.11,0.07,-0.12,0.0,0.0,0.0,0,1570,1817,1000,1500,1570,1000,1000,1000,1000,1000,255
-33,130,243985,350.88,4.31,-3.13,0.1,0.11,-0.06,0.0,0.0,0.0,0,1567,1818,1000,1500,1567,1000,1000,1000,1000,1000,255
-33,129,244007,350.88,4.31,-3.13,0.11,0.09,-0.06,0.0,0.0,0.0,0,1570,1817,1000,1500,1570,1000,1000,1000,1000,1000,255
-33,131,244029,350.88,4.31,-3.13,0.15,0.03,-0.08,0.0,0.0,0.0,0,1570,1817,1000,1500,1570,1000,1000,1000,1000,1000,255
-30,132,244058,350.88,4.31,-3.13,0.14,0.04,-0.05,0.0,0.0,0.0,0,1571,1817,1000,1500,1571,1000,1000,1000,1000,1000,255
-32,129,244088,350.88,4.31,-3.13,0.12,0.04,-0.05,0.0,0.0,0.0,0,1568,1818,1000,1500,1568,1000,1000,1000,1000,1000,255
-32,129,244120,350.88,4.31,-3.13,0.15,0.01,-0.09,0.0,0.0,0.0,0,1569,1817,1000,1500,1569,1000,1000,1000,1000,1000,255
-32,129,244136,350.88,4.31,-3.13,0.15,0.02,-0.12,0.0,0.0,0.0,0,1568,1817,1000,1500,1568,1000,1000,1000,1000,1000,255
-33,131,244167,350.88,4.31,-3.13,0.15,0.04,-0.11,0.0,0.0,0.0,0,1568,1818,1000,1500,1568,1000,1000,1000,1000,1000,255
-32,130,244185,350.88,4.31,-3.13,0.16,0.03,-0.08,0.0,0.0,0.0,0,1569,1817,1000,1500,1569,1000,1000,1000,1000,1000,255
-38,131,244218,350.88,4.31,-3.13,0.13,0.04,-0.08,0.0,0.0,0.0,0,1569,1818,1000,1500,1569,1000,1000,1000,1000,1000,255
-39,131,244250,350.88,4.31,-3.13,0.15,0.02,-0.1,0.0,0.0,0.0,0,1569,1818,1000,1500,1569,1000,1000,1000,1000,1000,255
-38,132,244267,350.88,4.31,-3.13,0.15,0.04,-0.07,0.0,0.0,0.0,0,1569,1818,1000,1500,1569,1000,1000,1000,1000,1000,255
-39,130,244297,350.88,4.31,-3.13,0.15,0.03,-0.09,0.0,0.0,0.0,0,1569,1817,1000,1500,1569,1000,1000,1000,1000,1000,255
-39,128,244314,350.88,4.31,-3.13,0.14,0.04,-0.08,0.0,0.0,0.0,0,1569,1818,1000,1500,1569,1000,1000,1000,1000,1000,255
-39,132,244343,350.88,4.31,-3.13,0.15,0.01,-0.12,0.0,0.0,0.0,0,1569,1817,1000,1500,1569,1000,1000,1000,1000,1000,255
-39,131,244374,350.88,4.31,-3.13,0.12,0.02,-0.11,0.0,0.0,0.0,0,1569,1818,1000,1500,1569,1000,1000,1000,1000,1000,255
-35,131,244425,350.88,4.31,-3.13,0.15,0.02,-0.12,0.0,0.0,0.0,0,1570,1817,1000,1500,1570,1000,1000,1000,1000,1000,255
-37,132,244439,350.88,4.31,-3.13,0.15,0.02,-0.11,0.0,0.0,0.0,0,1569,1818,1000,1500,1569,1000,1000,1000,1000,1000,255
-36,130,244470,350.88,4.31,-3.13,0.14,0.02,-0.1,0.0,0.0,0.0,0,1569,1817,1000,1500,1569,1000,1000,1000,1000,1000,255
-32,131,244503,350.88,4.31,-3.13,0.16,0.02,-0.09,0.0,0.0,0.0,0,1569,1817,1000,1500,1569,1000,1000,1000,1000,1000,255
-34,133,244517,350.88,4.31,-3.13,0.16,0.03,-0.14,0.0,0.0,0.0,0,1569,1818,1000,1500,1569,1000,1000,1000,1000,1000,255
-33,131,244549,350.88,4.31,-3.13,0.16,0.02,-0.03,0.0,0.0,0.0,0,1569,1818,1000,1500,1569,1000,1000,1000,1000,1000,255
-32,130,244581,350.88,4.31,-3.13,0.2,0.06,0.0,0.0,0.0,0.0,0,1568,1819,1000,1500,1568,1000,1000,1000,1000,1000,255
-32,130,244602,350.88,4.31,-3.13,0.03,0.03,-0.04,0.0,0.0,0.0,0,1569,1816,1000,1500,1569,1000,1000,1000,1000,1000,255
-32,130,244625,350.88,4.31,-3.13,0.15,0.01,-0.09,0.0,0.0,0.0,0,1569,1819,1000,1500,1569,1000,1000,1000,1000,1000,255
-33,130,244656,350.88,4.31,-3.13,0.15,0.05,-0.04,0.0,0.0,0.0,0,1567,1819,1000,1500,1567,1000,1000,1000,1000,1000,255
-33,130,244671,350.88,4.31,-3.13,0.16,0.08,-0.1,0.0,0.0,0.0,0,1567,1819,1000,1500,1567,1000,1000,1000,1000,1000,255
-34,131,244703,350.88,4.31,-3.13,0.14,0.03,-0.12,0.0,0.0,0.0,0,1569,1817,1000,1500,1569,1000,1000,1000,1000,1000,255
-34,130,244734,350.88,4.31,-3.13,0.15,0.02,-0.11,0.0,0.0,0.0,0,1570,1817,1000,1500,1570,1000,1000,1000,1000,1000,255
-33,129,244750,350.88,4.31,-3.13,0.15,0.05,-0.08,0.0,0.0,0.0,0,1569,1817,1000,1500,1569,1000,1000,1000,1000,1000,255
-34,130,244782,350.88,4.31,-3.13,0.15,0.01,-0.1,0.0,0.0,0.0,0,1571,1818,1000,1500,1571,1000,1000,1000,1000,1000,255
-35,132,244813,350.88,4.31,-3.13,0.14,0.01,-0.07,0.0,0.0,0.0,0,1570,1818,1000,1500,1570,1000,1000,1000,1000,1000,255
-34,130,244834,350.88,4.31,-3.13,0.16,0.02,-0.1,0.0,0.0,0.0,0,1569,1818,1000,1500,1569,1000,1000,1000,1000,1000,255
-34,129,244865,350.88,4.31,-3.13,0.15,0.02,-0.08,0.0,0.0,0.0,0,1569,1818,1000,1500,1569,1000,1000,1000,1000,1000,255
-35,130,244880,350.88,4.31,-3.13,0.15,0.04,-0.11,0.0,0.0,0.0,0,1568,1818,1000,1500,1568,1000,1000,1000,1000,1000,255
-35,131,244911,350.88,4.31,-3.13,0.14,0.03,-0.09,0.0,0.0,0.0,0,1569,1818,1000,1500,1569,1000,1000,1000,1000,1000,255
-35,131,244939,350.88,4.31,-3.13,0.15,0.03,-0.08,0.0,0.0,0.0,0,1570,1817,1000,1500,1570,1000,1000,1000,1000,1000,255
-36,129,244971,350.88,4.31,-3.13,0.12,0.01,-0.11,0.0,0.0,0.0,0,1570,1817,1000,1500,1570,1000,1000,1000,1000,1000,255
-34,132,244986,350.88,4.31,-3.13,0.15,0.02,-0.1,0.0,0.0,0.0,0,1570,1818,1000,1500,1570,1000,1000,1000,1000,1000,255
-35,130,245023,350.88,4.31,-3.13,0.15,0.03,-0.12,0.0,0.0,0.0,0,1569,1818,1000,1500,1569,1000,1000,1000,1000,1000,255
-35,132,245037,350.88,4.31,-3.13,0.14,0.04,-0.09,0.0,0.0,0.0,0,1569,1817,1000,1500,1569,1000,1000,1000,1000,1000,255
-37,129,245068,350.88,4.31,-3.13,0.15,0.0,-0.12,0.0,0.0,0.0,0,1569,1818,1000,1500,1569,1000,1000,1000,1000,1000,255
-37,130,245101,350.88,4.31,-3.13,0.15,0.03,-0.08,0.0,0.0,0.0,0,1570,1818,1000,1500,1570,1000,1000,1000,1000,1000,255
-37,131,245115,350.88,4.31,-3.13,0.14,0.03,-0.1,0.0,0.0,0.0,0,1569,1817,1000,1500,1569,1000,1000,1000,1000,1000,255
-37,130,245146,350.88,4.31,-3.13,0.14,0.02,-0.11,0.0,0.0,0.0,0,1569,1817,1000,1500,1569,1000,1000,1000,1000,1000,255
-37,131,245178,350.88,4.31,-3.13,0.17,0.03,-0.1,0.0,0.0,0.0,0,1569,1818,1000,1500,1569,1000,1000,1000,1000,1000,255
-37,129,245201,350.88,4.31,-3.13,0.15,0.0,-0.06,0.0,0.0,0.0,0,1569,1818,1000,1500,1569,1000,1000,1000,1000,1000,255
-37,130,245224,350.88,4.31,-3.13,0.21,0.01,-0.12,0.0,0.0,0.0,0,1568,1816,1000,1500,1568,1000,1000,1000,1000,1000,255
-37,132,245254,350.88,4.25,-3.13,0.1,-0.04,-0.12,0.0,0.0,0.0,0,1565,1815,1000,1500,1565,1000,1000,1000,1000,1000,255
-37,130,245284,350.88,4.25,-3.06,0.15,0.0,-0.11,0.0,0.0,0.0,0,1558,1817,1000,1500,1558,1000,1000,1000,1000,1000,255
-38,131,245299,350.88,4.25,-3.0,0.15,0.09,-0.08,0.0,0.0,0.0,0,1557,1817,1000,1500,1557,1000,1000,1000,1000,1000,255
-38,131,245330,350.88,4.25,-3.0,0.21,-0.02,-0.1,0.0,0.0,0.0,0,1560,1819,1000,1500,1560,1000,1000,1000,1000,1000,255
-39,132,245359,350.81,4.25,-2.88,0.36,-0.05,-0.22,0.0,0.0,0.0,0,1549,1820,1000,1500,1549,1000,1000,1000,1000,1000,255
-39,132,245374,350.81,4.25,-2.81,0.5,0.08,-0.16,0.0,0.0,0.0,0,1528,1821,1000,1500,1528,1000,1000,1000,1000,1000,255
-40,130,245419,350.63,4.19,-2.06,0.18,-0.46,0.09,0.0,0.0,0.0,0,1468,1837,1000,1500,1468,1000,1000,1000,1000,1000,255
-36,132,245435,350.63,4.31,-1.88,0.15,-0.47,-0.01,0.0,0.0,0.0,0,1475,1847,1000,1500,1475,1000,1000,1000,1000,1000,255
-39,132,245465,350.63,4.5,-1.56,0.22,-0.34,-0.05,0.0,0.0,0.0,0,1545,1843,1000,1500,1545,1000,1000,1000,1000,1000,255
-38,131,245494,351.0,4.69,-1.88,0.05,0.55,0.38,0.0,0.0,0.0,0,1610,1885,1000,1500,1610,1000,1000,1000,1000,1000,255
-38,132,245512,351.31,5.0,-2.25,-0.09,0.2,1.44,0.0,0.0,0.0,0,1622,1902,1000,1500,1622,1000,1000,1000,1000,1000,255
-37,132,245539,351.88,5.5,-2.88,1.2,1.26,0.1,0.0,0.0,0.0,0,1627,1901,1000,1500,1627,1000,1000,1000,1000,1000,255
-36,129,245570,352.06,5.94,-3.0,0.0,-0.27,-0.34,0.0,0.0,0.0,0,1564,1932,1000,1500,1564,1000,1000,1000,1000,1000,255
-36,129,245585,352.13,6.13,-3.0,-0.01,-0.69,1.24,0.0,0.0,0.0,0,1563,1959,1000,1500,1563,1000,1000,1000,1000,1000,255
-34,131,245617,352.56,7.25,-3.0,0.13,-0.19,2.29,0.0,0.0,0.0,0,1559,2000,1000,1500,1559,1000,1000,1000,1000,1000,255
-33,130,245648,353.06,8.06,-3.06,-0.13,-0.37,2.66,0.0,0.0,0.0,0,1565,2000,1000,1500,1565,1000,1000,1000,1000,1000,255
-30,129,245663,353.25,8.25,-3.06,-0.17,-0.36,2.79,0.0,0.0,0.0,0,1588,1989,1000,1500,1588,1000,1000,1000,1000,1000,255
-30,130,245694,353.75,8.75,-3.38,-0.37,-0.03,3.79,0.0,0.0,0.0,0,1613,1959,1000,1500,1613,1000,1000,1000,1000,1000,255
-29,131,245725,354.19,8.88,-3.75,0.22,-0.09,3.2,0.0,0.0,0.0,0,1615,1914,1000,1500,1615,1000,1000,1000,1000,1000,255
-29,130,245752,354.63,8.75,-4.0,0.04,-0.31,3.59,0.0,0.0,0.0,0,1602,1883,1000,1500,1602,1000,1000,1000,1000,1000,255
-29,130,245769,354.88,8.44,-4.06,0.07,-0.41,3.45,0.0,0.0,0.0,0,1604,1845,1000,1500,1604,1000,1000,1000,1000,1000,255
-28,133,245816,355.69,7.25,-4.25,0.22,-0.45,3.63,0.0,0.0,0.0,0,1579,1776,1000,1500,1579,1000,1000,1000,1000,1000,255
-27,131,245833,355.88,6.94,-4.19,0.21,-0.6,3.67,0.0,0.0,0.0,0,1560,1766,1000,1500,1560,1000,1000,1000,1000,1000,255
-28,129,245863,356.44,6.19,-3.75,0.28,-0.4,3.32,0.0,0.0,0.0,0,1480,1775,1000,1500,1480,1000,1000,1000,1000,1000,255
-28,129,245893,357.13,5.56,-3.0,0.14,-0.16,2.91,0.0,0.0,0.0,0,1450,1767,1000,1500,1450,1000,1000,1000,1000,1000,255
-29,131,245908,357.56,5.19,-2.44,0.05,-0.1,2.78,0.0,0.0,0.0,0,1433,1762,1000,1500,1433,1000,1000,1000,1000,1000,255
-29,129,245938,358.25,4.63,-1.56,-0.16,-0.11,3.19,0.0,0.0,0.0,0,1404,1756,1000,1500,1404,1000,1000,1000,1000,1000,255
-30,131,245966,359.0,4.06,-0.69,-0.46,0.47,2.18,0.0,0.0,0.0,0,1394,1730,1000,1500,1394,1000,1000,1000,1000,1000,255
-30,129,245983,359.25,3.81,-0.44,-0.43,0.47,2.38,0.0,0.0,0.0,0,1406,1715,1000,1500,1406,1000,1000,1000,1000,1000,255
-32,131,246016,0.06,2.88,0.12,-0.08,0.38,1.79,0.0,0.0,0.0,0,1463,1675,1000,1500,1463,1000,1000,1000,1000,1000,255
-37,132,246046,0.69,2.0,0.0,-0.2,0.18,1.93,0.0,0.0,0.0,0,1526,1652,1000,1500,1526,1000,1000,1000,1000,1000,255
-44,134,246063,0.88,1.75,0.0,-0.14,-0.26,1.39,0.0,0.0,0.0,0,1557,1645,1000,1500,1557,1000,1000,1000,1000,1000,255
-37,130,246092,1.44,0.94,-0.5,0.02,0.26,0.73,0.0,0.0,0.0,0,1580,1635,1000,1500,1580,1000,1000,1000,1000,1000,255
-31,129,246123,1.94,0.31,-1.12,-0.24,-0.21,-0.52,0.0,0.0,0.0,0,1624,1677,1000,1500,1624,1000,1000,1000,1000,1000,255
-28,130,246151,2.5,0.12,-1.88,-0.01,-0.11,-0.53,0.0,0.0,0.0,0,1645,1726,1000,1500,1645,1000,1000,1000,1000,1000,255
-28,131,246165,2.94,0.25,-2.38,-0.64,-0.89,-0.48,0.0,0.0,0.0,0,1662,1763,1000,1500,1662,1000,1000,1000,1000,1000,255
-26,132,246214,3.69,0.88,-3.38,-0.27,0.24,-1.05,0.0,0.0,0.0,0,1665,1843,1000,1500,1665,1000,1000,1000,1000,1000,255
-26,132,246232,4.13,1.37,-3.88,-0.61,0.35,-1.85,0.0,0.0,0.0,0,1678,1868,1000,1500,1678,1000,1000,1000,1000,1000,255
-27,130,246262,4.75,2.38,-4.5,-0.65,0.44,-1.99,0.0,0.0,0.0,0,1681,1926,1000,1500,1681,1000,1000,1000,1000,1000,255
-26,133,246278,5.19,3.13,-4.94,-0.01,-0.48,-0.99,0.0,0.0,0.0,0,1684,1959,1000,1500,1684,1000,1000,1000,1000,1000,255
-27,129,246306,5.81,4.5,-5.38,-0.61,0.2,-1.07,0.0,0.0,0.0,0,1664,2000,1000,1500,1664,1000,1000,1000,1000,1000,255
-27,130,246336,6.5,6.06,-5.31,-0.92,0.42,-0.31,0.0,0.0,0.0,0,1567,2000,1000,1500,1567,1000,1000,1000,1000,1000,255
-27,130,246365,7.06,7.63,-4.81,-1.53,1.94,-0.13,0.0,0.0,0.0,0,1518,2000,1000,1500,1518,1000,1000,1000,1000,1000,255
-28,129,246382,7.25,8.06,-4.63,-1.55,2.0,-0.38,0.0,0.0,0.0,0,1523,2000,1000,1500,1523,1000,1000,1000,1000,1000,255
-29,132,246414,7.81,9.56,-4.19,-0.2,0.9,0.23,0.0,0.0,0.0,0,1537,2000,1000,1500,1537,1000,1000,1000,1000,1000,255
-30,130,246445,8.13,10.63,-3.94,0.26,1.04,-0.75,0.0,0.0,0.0,0,1581,2000,1000,1500,1581,1000,1000,1000,1000,1000,255
-30,134,246462,8.13,10.75,-3.94,-0.39,1.77,-1.84,0.0,0.0,0.0,0,1603,2000,1000,1500,1603,1000,1000,1000,1000,1000,255
-31,130,246491,8.19,11.0,-4.44,0.5,0.9,-1.93,0.0,0.0,0.0,0,1673,2000,1000,1500,1673,1000,1000,1000,1000,1000,255
-32,134,246522,7.94,11.25,-4.88,0.77,1.44,1.25,0.0,0.0,0.0,0,1651,1963,1000,1500,1651,1000,1000,1000,1000,1000,255
-32,130,246536,7.56,11.13,-5.0,-0.17,0.78,1.64,0.0,0.0,0.0,0,1631,1934,1000,1500,1631,1000,1000,1000,1000,1000,255
-32,132,246564,6.94,10.56,-4.69,-1.53,0.14,0.67,0.0,0.0,0.0,0,1563,1844,1000,1500,1563,1000,1000,1000,1000,1000,255
-32,132,246614,6.0,9.19,-3.81,-0.76,1.2,-0.32,0.0,0.0,0.0,0,1490,1723,1000,1500,1490,1000,1000,1000,1000,1000,255
-34,129,246631,5.5,8.19,-3.25,-0.63,1.61,-1.62,0.0,0.0,0.0,0,1450,1689,1000,1500,1450,1000,1000,1000,1000,1000,255
-33,129,246661,4.69,6.56,-2.0,-0.34,1.46,-2.46,0.0,0.0,0.0,0,1387,1632,1000,1500,1387,1000,1000,1000,1000,1000,255
-33,129,246676,4.06,5.5,-1.25,0.24,2.02,-1.84,0.0,0.0,0.0,0,1386,1630,1000,1500,1386,1000,1000,1000,1000,1000,255
-33,132,246705,3.19,3.94,-0.37,0.11,1.5,-2.86,0.0,0.0,0.0,0,1412,1592,1000,1500,1412,1000,1000,1000,1000,1000,255
-32,131,246735,2.44,2.44,-0.19,-0.13,0.76,-3.55,0.0,0.0,0.0,0,1522,1581,1000,1500,1522,1000,1000,1000,1000,1000,255
-32,132,246763,1.63,1.06,-0.69,0.09,-0.19,-4.47,0.0,0.0,0.0,0,1623,1555,1000,1500,1623,1000,1000,1000,1000,1000,255
-31,131,246780,1.37,0.63,-1.06,0.55,-0.16,-4.23,0.0,0.0,0.0,0,1662,1550,1000,1500,1662,1000,1000,1000,1000,1000,255
-30,133,246812,0.69,-0.63,-2.44,0.58,0.12,-3.84,0.0,0.0,0.0,0,1787,1535,1000,1500,1787,1000,1000,1000,1000,1000,255
-29,130,246844,0.12,-1.88,-4.25,0.36,0.07,-4.02,0.0,0.0,0.0,0,1867,1506,1000,1500,1867,1000,1000,1000,1000,1000,255
-29,132,246860,359.75,-2.69,-5.63,0.19,0.13,-3.87,0.0,0.0,0.0,0,1905,1488,1000,1500,1905,1000,1000,1000,1000,1000,255
-28,130,246889,359.19,-3.88,-7.81,0.07,0.46,-4.15,0.0,0.0,0.0,0,1964,1457,1000,1500,1964,1000,1000,1000,1000,1000,255
-28,130,246921,358.5,-5.06,-10.0,-0.14,-0.15,-2.92,0.0,0.0,0.0,0,2000,1443,1000,1500,2000,1000,1000,1000,1000,1000,255
-28,132,246934,358.13,-5.75,-11.5,0.49,-0.29,-1.41,0.0,0.0,0.0,0,2000,1432,1000,1500,2000,1000,1000,1000,1000,1000,255
-28,130,246963,357.81,-6.5,-12.94,-0.35,-0.63,0.11,0.0,0.0,0.0,0,2000,1405,1000,1500,2000,1000,1000,1000,1000,1000,255
-28,130,247012,357.25,-8.19,-15.19,-1.35,0.36,-0.33,0.0,0.0,0.0,0,1852,1398,1000,1500,1852,1000,1000,1000,1000,1000,255
-28,132,247029,356.88,-8.81,-15.19,-1.38,0.55,-1.34,0.0,0.0,0.0,0,1802,1388,1000,1500,1802,1000,1000,1000,1000,1000,255
-28,131,247060,356.06,-9.44,-14.69,-0.45,0.69,-1.23,0.0,0.0,0.0,0,1723,1413,1000,1500,1723,1000,1000,1000,1000,1000,255
-28,129,247089,355.19,-9.81,-14.19,0.14,-0.51,-0.92,0.0,0.0,0.0,0,1735,1422,1000,1500,1735,1000,1000,1000,1000,1000,255
-28,129,247103,354.94,-9.94,-14.06,-0.02,-0.37,-0.38,0.0,0.0,0.0,0,1737,1423,1000,1500,1737,1000,1000,1000,1000,1000,255
-28,129,247134,354.06,-10.5,-13.44,-0.4,-0.36,0.11,0.0,0.0,0.0,0,1712,1414,1000,1500,1712,1000,1000,1000,1000,1000,255
-28,131,247162,353.69,-10.75,-13.13,-0.48,-1.29,0.22,0.0,0.0,0.0,0,1718,1411,1000,1500,1718,1000,1000,1000,1000,1000,255
-28,131,247211,352.88,-11.5,-12.94,-0.04,-0.18,-0.35,0.0,0.0,0.0,0,1817,1405,1000,1500,1817,1000,1000,1000,1000,1000,255
-28,129,247227,352.75,-11.69,-13.13,0.12,-0.33,-0.28,0.0,0.0,0.0,0,1836,1408,1000,1500,1836,1000,1000,1000,1000,1000,255
-28,131,247258,352.56,-12.0,-13.75,-0.14,-0.63,-0.39,0.0,0.0,0.0,0,1899,1412,1000,1500,1899,1000,1000,1000,1000,1000,255
-29,130,247286,352.56,-12.25,-14.69,0.59,-0.44,-1.12,0.0,0.0,0.0,0,1955,1422,1000,1500,1955,1000,1000,1000,1000,1000,255
-29,130,247316,352.75,-12.31,-15.63,0.17,0.18,-1.83,0.0,0.0,0.0,0,1973,1453,1000,1500,1973,1000,1000,1000,1000,1000,255
-29,131,247331,352.81,-12.25,-15.88,-0.22,-0.03,-1.7,0.0,0.0,0.0,0,1956,1498,1000,1500,1956,1000,1000,1000,1000,1000,255
-29,129,247361,353.06,-11.88,-16.5,-0.13,-0.63,-1.42,0.0,0.0,0.0,0,1940,1540,1000,1500,1940,1000,1000,1000,1000,1000,255
-29,131,247410,353.69,-10.63,-17.0,-0.17,0.0,-1.55,0.0,0.0,0.0,0,1898,1637,1000,1500,1898,1000,1000,1000,1000,1000,255
-29,132,247427,354.0,-9.81,-16.81,0.31,0.23,-1.27,0.0,0.0,0.0,0,1825,1697,1000,1500,1825,1000,1000,1000,1000,1000,255
-29,132,247456,354.31,-8.38,-15.63,0.77,0.39,-1.39,0.0,0.0,0.0,0,1652,1758,1000,1500,1652,1000,1000,1000,1000,1000,255
-30,132,247485,354.5,-6.75,-13.56,0.51,0.13,-1.34,0.0,0.0,0.0,0,1491,1815,1000,1500,1491,1000,1000,1000,1000,1000,255
-30,135,247499,354.56,-6.13,-12.75,1.14,-0.42,0.56,0.0,0.0,0.0,0,1455,1849,1000,1500,1455,1000,1000,1000,1000,1000,255
-30,132,247530,354.63,-4.44,-10.31,1.17,0.14,0.53,0.0,0.0,0.0,0,1416,1830,1000,1500,1416,1000,1000,1000,1000,1000,255
-31,129,247560,354.69,-3.06,-8.13,0.91,0.26,0.14,0.0,0.0,0.0,0,1408,1826,1000,1500,1408,1000,1000,1000,1000,1000,255
-31,133,247610,354.88,-1.31,-5.19,0.9,-0.09,1.39,0.0,0.0,0.0,0,1398,1804,1000,1500,1398,1000,1000,1000,1000,1000,255
-32,131,247625,354.88,-0.94,-4.13,0.67,-0.06,1.29,0.0,0.0,0.0,0,1385,1775,1000,1500,1385,1000,1000,1000,1000,1000,255
-32,129,247654,354.88,-0.56,-2.63,0.8,-0.38,0.89,0.0,0.0,0.0,0,1352,1750,1000,1500,1352,1000,1000,1000,1000,1000,255
-33,129,247684,354.75,-0.37,-1.06,0.45,-0.48,1.09,0.0,0.0,0.0,0,1308,1725,1000,1500,1308,1000,1000,1000,1000,1000,255
-34,129,247712,354.56,-0.44,0.37,0.39,-0.96,1.17,0.0,0.0,0.0,0,1282,1691,1000,1500,1282,1000,1000,1000,1000,1000,255
-34,134,247730,354.5,-0.56,0.88,0.5,-0.84,1.09,0.0,0.0,0.0,0,1274,1678,1000,1500,1274,1000,1000,1000,1000,1000,255
-35,129,247759,354.25,-1.0,2.31,0.25,-0.54,0.99,0.0,0.0,0.0,0,1233,1632,1000,1500,1233,1000,1000,1000,1000,1000,255
-36,131,247810,353.69,-2.19,4.94,0.02,-0.82,0.42,0.0,0.0,0.0,0,1177,1561,1000,1500,1177,1000,1000,1000,1000,1000,255
-38,130,247825,353.44,-2.81,5.94,0.0,-0.97,0.48,0.0,0.0,0.0,0,1163,1533,1000,1500,1163,1000,1000,1000,1000,1000,255
-37,134,247853,353.0,-3.81,7.44,-0.23,-1.0,0.54,0.0,0.0,0.0,0,1128,1495,1000,1500,1128,1000,1000,1000,1000,1000,255
-39,130,247883,352.56,-5.0,8.81,-0.37,-1.1,-0.32,0.0,0.0,0.0,0,1086,1455,1000,1500,1086,1000,1000,1000,1000,1000,255
-41,130,247911,352.31,-5.75,9.88,-0.52,-1.17,-0.27,0.0,0.0,0.0,0,1068,1443,1000,1500,1068,1000,1000,1000,1000,1000,255
-45,131,247928,352.0,-6.56,10.88,-0.46,-1.11,-0.07,0.0,0.0,0.0,0,1051,1425,1000,1500,1051,1000,1000,1000,1000,1000,255
-48,131,247959,351.63,-7.75,12.25,-0.52,-1.25,-0.4,0.0,0.0,0.0,0,1050,1394,1000,1500,1050,1000,1000,1000,1000,1000,255
-45,131,248007,351.13,-9.5,13.13,-0.58,-1.27,-0.55,0.0,0.0,0.0,0,1150,1354,1000,1500,1150,1000,1000,1000,1000,1000,255
-45,131,248022,351.13,-10.31,13.13,-0.56,-1.27,-0.89,0.0,0.0,0.0,0,1222,1324,1000,1500,1222,1000,1000,1000,1000,1000,255
-44,133,248081,351.81,-12.38,11.75,-0.55,-1.04,-0.64,0.0,0.0,0.0,0,1461,1270,1000,1500,1461,1000,1000,1000,1000,1000,255
-46,131,248094,352.31,-13.13,10.75,-0.63,-1.19,-0.42,0.0,0.0,0.0,0,1506,1253,1000,1500,1506,1000,1000,1000,1000,1000,255
-47,132,248127,353.38,-14.31,8.88,-0.79,-0.85,-0.7,0.0,0.0,0.0,0,1611,1220,1000,1500,1611,1000,1000,1000,1000,1000,255
-46,129,248158,354.88,-15.44,6.75,-0.77,-0.17,-1.45,0.0,0.0,0.0,0,1704,1211,1000,1500,1704,1000,1000,1000,1000,1000,255
-48,132,248172,356.13,-16.06,5.19,-0.78,0.09,-1.49,0.0,0.0,0.0,0,1760,1219,1000,1500,1760,1000,1000,1000,1000,1000,255
-45,129,248205,358.25,-16.81,2.88,-0.64,0.6,-1.54,0.0,0.0,0.0,0,1832,1243,1000,1500,1832,1000,1000,1000,1000,1000,255
-45,130,248233,0.63,-17.31,0.63,-0.62,1.41,-1.88,0.0,0.0,0.0,0,1873,1286,1000,1500,1873,1000,1000,1000,1000,1000,255
-44,132,248248,1.37,-17.37,-0.06,-0.57,1.36,-1.9,0.0,0.0,0.0,0,1879,1306,1000,1500,1879,1000,1000,1000,1000,1000,255
-40,131,248280,3.69,-17.25,-2.0,-0.63,1.85,-2.26,0.0,0.0,0.0,0,1845,1410,1000,1500,1845,1000,1000,1000,1000,1000,255
-41,132,248309,5.75,-16.69,-3.13,-0.34,2.05,-2.01,0.0,0.0,0.0,0,1799,1497,1000,1500,1799,1000,1000,1000,1000,1000,255
-38,130,248338,7.56,-15.69,-2.94,-0.46,1.81,-1.95,0.0,0.0,0.0,0,1753,1563,1000,1500,1753,1000,1000,1000,1000,1000,255
-37,131,248354,8.5,-14.69,-3.19,-0.2,1.63,-1.9,0.0,0.0,0.0,0,1734,1620,1000,1500,1734,1000,1000,1000,1000,1000,255
-36,130,248404,10.19,-11.63,-4.75,0.17,1.27,-1.23,0.0,0.0,0.0,0,1775,1736,1000,1500,1775,1000,1000,1000,1000,1000,255
-36,133,248420,10.5,-11.0,-5.13,0.18,1.34,-0.56,0.0,0.0,0.0,0,1787,1753,1000,1500,1787,1000,1000,1000,1000,1000,255
-36,131,248448,11.31,-9.06,-6.25,0.31,1.22,-0.45,0.0,0.0,0.0,0,1816,1794,1000,1500,1816,1000,1000,1000,1000,1000,255
-35,130,248479,12.06,-7.19,-7.5,0.29,1.14,-0.91,0.0,0.0,0.0,0,1851,1830,1000,1500,1851,1000,1000,1000,1000,1000,255
-35,132,248509,12.75,-5.25,-8.69,0.33,1.28,-0.41,0.0,0.0,0.0,0,1853,1881,1000,1500,1853,1000,1000,1000,1000,1000,255
-35,133,248525,13.13,-4.0,-9.44,0.38,1.17,-0.55,0.0,0.0,0.0,0,1861,1908,1000,1500,1861,1000,1000,1000,1000,1000,255
-35,129,248555,13.56,-2.06,-10.31,0.38,1.27,-0.5,0.0,0.0,0.0,0,1845,1956,1000,1500,1845,1000,1000,1000,1000,1000,255
-33,129,248601,14.0,1.31,-11.06,0.38,1.63,-0.21,0.0,0.0,0.0,0,1759,2000,1000,1500,1759,1000,1000,1000,1000,1000,255
-34,132,248617,14.06,2.06,-11.06,0.4,1.77,-0.23,0.0,0.0,0.0,0,1731,2000,1000,1500,1731,1000,1000,1000,1000,1000,255
-34,130,248645,14.0,4.25,-10.56,0.15,1.66,-0.01,0.0,0.0,0.0,0,1645,2000,1000,1500,1645,1000,1000,1000,1000,1000,255
-34,131,248677,13.69,6.56,-9.63,0.17,1.89,0.24,0.0,0.0,0.0,0,1569,2000,1000,1500,1569,1000,1000,1000,1000,1000,255
-33,132,248691,13.38,8.06,-8.75,-0.03,2.08,0.82,0.0,0.0,0.0,0,1513,2000,1000,1500,1513,1000,1000,1000,1000,1000,255
-35,131,248722,12.69,10.31,-7.06,0.16,1.63,1.29,0.0,0.0,0.0,0,1431,2000,1000,1500,1431,1000,1000,1000,1000,1000,255
-35,131,248751,11.69,12.38,-5.19,-0.14,1.23,1.66,0.0,0.0,0.0,0,1383,2000,1000,1500,1383,1000,1000,1000,1000,1000,255
-35,135,248768,11.31,13.0,-4.5,-0.2,1.04,1.88,0.0,0.0,0.0,0,1368,2000,1000,1500,1368,1000,1000,1000,1000,1000,255
-35,130,248801,9.63,15.25,-1.81,-0.48,1.08,2.02,0.0,0.0,0.0,0,1310,2000,1000,1500,1310,1000,1000,1000,1000,1000,255
-36,131,248832,8.13,16.56,0.25,-0.35,0.68,2.55,0.0,0.0,0.0,0,1275,2000,1000,1500,1275,1000,1000,1000,1000,1000,255
-36,130,248845,7.63,16.94,0.94,-0.43,0.34,2.72,0.0,0.0,0.0,0,1274,2000,1000,1500,1274,1000,1000,1000,1000,1000,255
-35,129,248877,6.0,17.75,2.81,-0.53,0.35,2.44,0.0,0.0,0.0,0,1270,2000,1000,1500,1270,1000,1000,1000,1000,1000,255
-36,130,248907,4.25,18.12,4.5,-0.44,0.06,2.21,0.0,0.0,0.0,0,1262,2000,1000,1500,1262,1000,1000,1000,1000,1000,255
-38,133,248922,3.13,18.19,5.5,-0.67,-0.11,2.9,0.0,0.0,0.0,0,1261,2000,1000,1500,1261,1000,1000,1000,1000,1000,255
-39,132,248950,1.37,17.94,6.94,-0.62,-0.26,2.62,0.0,0.0,0.0,0,1237,2000,1000,1500,1237,1000,1000,1000,1000,1000,255
-37,129,248998,74.62,16.87,8.75,-0.77,-0.72,2.3,0.0,0.0,0.0,0,1179,1978,1000,1500,1179,1000,1000,1000,1000,1000,255
-39,131,249016,73.62,16.06,9.69,-0.92,-0.63,2.49,0.0,0.0,0.0,0,1150,1942,1000,1500,1150,1000,1000,1000,1000,1000,255
-37,128,249043,72.25,14.56,11.13,-0.97,-1.17,2.5,0.0,0.0,0.0,0,1112,1857,1000,1500,1112,1000,1000,1000,1000,1000,255
-37,132,249076,70.87,12.56,12.44,-1.15,-1.11,2.03,0.0,0.0,0.0,0,1079,1748,1000,1500,1079,1000,1000,1000,1000,1000,255
-36,130,249090,70.0,11.0,13.31,-1.25,-1.08,1.87,0.0,0.0,0.0,0,1062,1680,1000,1500,1062,1000,1000,1000,1000,1000,255
-36,131,249120,68.81,8.38,14.44,-1.26,-1.05,1.24,0.0,0.0,0.0,0,1055,1570,1000,1500,1055,1000,1000,1000,1000,1000,255
-35,131,249148,68.25,6.38,15.0,-1.3,-0.97,0.98,0.0,0.0,0.0,0,1070,1482,1000,1500,1070,1000,1000,1000,1000,1000,255
-34,133,249198,66.56,1.0,16.06,-1.72,-1.02,0.85,0.0,0.0,0.0,0,1097,1314,1000,1500,1097,1000,1000,1000,1000,1000,255
-35,130,249214,65.87,-1.19,16.25,-1.55,-0.98,0.88,0.0,0.0,0.0,0,1105,1262,1000,1500,1105,1000,1000,1000,1000,1000,255
-34,131,249243,65.31,-4.75,16.31,-1.61,-1.02,0.19,0.0,0.0,0.0,0,1137,1155,1000,1500,1137,1000,1000,1000,1000,1000,255
-35,129,249275,64.56,-8.44,16.12,-1.62,-1.14,0.44,0.0,0.0,0.0,0,1173,1057,1000,1500,1173,1000,1000,1000,1000,1000,255
-36,131,249289,64.31,-9.63,16.0,-1.65,-1.24,0.3,0.0,0.0,0.0,0,1190,1021,1000,1500,1190,1000,1000,1000,1000,1000,255
-37,132,249319,63.81,-14.63,15.5,-1.61,-1.33,-0.31,0.0,0.0,0.0,0,1218,1000,1000,1500,1218,1000,1000,1000,1000,1000,255
-37,132,249348,63.94,-17.12,15.19,-1.5,-1.43,-0.56,0.0,0.0,0.0,0,1234,1000,1000,1500,1234,1000,1000,1000,1000,1000,255
-38,131,249397,64.12,-23.0,14.31,-1.69,-1.15,-1.68,0.0,0.0,0.0,0,1277,1000,1000,1500,1277,1000,1000,1000,1000,1000,255
-37,130,249412,64.31,-25.12,13.94,-1.51,-1.16,-2.05,0.0,0.0,0.0,0,1296,1000,1000,1500,1296,1000,1000,1000,1000,1000,255
-37,132,249442,64.87,-28.06,13.44,-1.65,-1.01,-2.59,0.0,0.0,0.0,0,1313,1000,1000,1500,1313,1000,1000,1000,1000,1000,255
-37,130,249474,65.44,-30.56,13.0,-1.48,-1.04,-2.73,0.0,0.0,0.0,0,1324,1000,1000,1500,1324,1000,1000,1000,1000,1000,255
-36,132,249488,65.69,-31.25,12.88,-1.39,-1.17,-2.72,0.0,0.0,0.0,0,1329,1000,1000,1500,1329,1000,1000,1000,1000,1000,255
-36,133,249518,66.69,-33.0,12.56,-1.31,-0.82,-3.11,0.0,0.0,0.0,0,1329,1000,1000,1500,1329,1000,1000,1000,1000,1000,255
-38,132,249546,67.75,-34.19,12.25,-0.89,-0.64,-3.02,0.0,0.0,0.0,0,1332,1000,1000,1500,1332,1000,1000,1000,1000,1000,255
-38,132,249595,69.62,-35.13,11.81,-0.48,-0.46,-2.93,0.0,0.0,0.0,0,1348,1000,1000,1500,1348,1000,1000,1000,1000,1000,255
-38,130,249610,70.31,-35.19,11.63,-0.47,-0.62,-2.8,0.0,0.0,0.0,0,1346,1000,1000,1500,1346,1000,1000,1000,1000,1000,255
-38,132,249640,71.37,-34.88,11.44,-0.17,-0.6,-2.82,0.0,0.0,0.0,0,1343,1000,1000,1500,1343,1000,1000,1000,1000,1000,255
-37,134,249671,72.37,-34.25,11.31,-0.12,-0.47,-2.76,0.0,0.0,0.0,0,1338,1048,1000,1500,1338,1000,1000,1000,1000,1000,255
-37,128,249716,73.81,-33.31,11.06,-0.06,-0.17,-2.18,0.0,0.0,0.0,0,1343,1148,1000,1500,1343,1000,1000,1000,1000,1000,255
-37,131,249730,74.44,-32.31,10.94,0.05,-0.07,-2.21,0.0,0.0,0.0,0,1349,1199,1000,1500,1349,1000,1000,1000,1000,1000,255
-37,132,249758,75.12,-31.19,10.69,-0.08,-0.08,-2.27,0.0,0.0,0.0,0,1364,1269,1000,1500,1364,1000,1000,1000,1000,1000,255
-37,131,249792,75.75,-29.87,10.38,-0.16,-0.09,-1.77,0.0,0.0,0.0,0,1382,1332,1000,1500,1382,1000,1000,1000,1000,1000,255
-37,131,249807,76.75,-27.62,9.81,0.0,-0.11,-1.69,0.0,0.0,0.0,0,1402,1421,1000,1500,1402,1000,1000,1000,1000,1000,255
-37,132,249838,77.62,-25.12,9.13,-0.15,-0.14,-0.99,0.0,0.0,0.0,0,1434,1515,1000,1500,1434,1000,1000,1000,1000,1000,255
-37,130,249869,78.87,-21.44,8.06,-0.3,-0.09,-0.95,0.0,0.0,0.0,0,1466,1631,1000,1500,1466,1000,1000,1000,1000,1000,255
-37,129,249896,79.44,-19.37,7.44,-0.38,0.0,-0.62,0.0,0.0,0.0,0,1492,1701,1000,1500,1492,1000,1000,1000,1000,1000,255
-37,129,249913,80.06,-17.31,6.75,-0.38,-0.01,-0.53,0.0,0.0,0.0,0,1514,1754,1000,1500,1514,1000,1000,1000,1000,1000,255
-38,130,249942,80.62,-14.13,5.63,-0.69,0.19,0.01,0.0,0.0,0.0,0,1553,1846,1000,1500,1553,1000,1000,1000,1000,1000,255
-39,129,249990,81.37,-10.75,4.44,-0.87,0.29,-0.34,0.0,0.0,0.0,0,1579,1942,1000,1500,1579,1000,1000,1000,1000,1000,255
-39,129,250006,81.94,-7.38,3.19,-1.0,0.31,-0.48,0.0,0.0,0.0,0,1605,2000,1000,1500,1605,1000,1000,1000,1000,1000,255
-41,130,250036,82.44,-3.88,1.94,-0.63,0.06,-0.41,0.0,0.0,0.0,0,1633,2000,1000,1500,1633,1000,1000,1000,1000,1000,255
-42,130,250066,82.81,-0.31,0.69,-0.91,0.28,-0.14,0.0,0.0,0.0,0,1642,2000,1000,1500,1642,1000,1000,1000,1000,1000,255
-43,132,250080,83.0,1.94,0.0,-0.99,0.31,0.31,0.0,0.0,0.0,0,1652,2000,1000,1500,1652,1000,1000,1000,1000,1000,255
-41,133,250108,83.19,5.44,-1.06,-0.8,0.23,0.63,0.0,0.0,0.0,0,1669,2000,1000,1500,1669,1000,1000,1000,1000,1000,255
-43,131,250139,83.31,8.69,-2.19,-0.8,0.16,1.22,0.0,0.0,0.0,0,1700,2000,1000,1500,1700,1000,1000,1000,1000,1000,255
-46,129,250171,83.31,11.69,-3.44,-0.67,0.07,1.56,0.0,0.0,0.0,0,1743,2000,1000,1500,1743,1000,1000,1000,1000,1000,255
-45,131,250199,83.25,14.38,-4.69,-0.5,-0.04,1.78,0.0,0.0,0.0,0,1772,2000,1000,1500,1772,1000,1000,1000,1000,1000,255
-44,132,250215,83.19,15.19,-5.06,-0.58,-0.06,1.96,0.0,0.0,0.0,0,1777,2000,1000,1500,1777,1000,1000,1000,1000,1000,255
-43,130,250243,82.94,17.37,-6.25,-0.64,0.27,2.02,0.0,0.0,0.0,0,1776,2000,1000,1500,1776,1000,1000,1000,1000,1000,255
-41,129,250274,82.81,19.12,-7.06,-0.58,0.09,1.92,0.0,0.0,0.0,0,1751,2000,1000,1500,1751,1000,1000,1000,1000,1000,255
-41,133,250289,82.69,20.0,-7.31,-0.78,0.21,2.59,0.0,0.0,0.0,0,1710,2000,1000,1500,1710,1000,1000,1000,1000,1000,255
-40,132,250319,82.5,21.0,-7.5,-0.68,0.0,2.49,0.0,0.0,0.0,0,1662,2000,1000,1500,1662,1000,1000,1000,1000,1000,255
-40,131,250347,82.37,21.31,-7.31,-0.52,-0.13,2.09,0.0,0.0,0.0,0,1624,2000,1000,1500,1624,1000,1000,1000,1000,1000,255
-42,129,250392,82.06,21.19,-6.56,-0.71,-0.13,2.03,0.0,0.0,0.0,0,1587,2000,1000,1500,1587,1000,1000,1000,1000,1000,255
-41,130,250437,81.62,19.75,-5.44,-0.74,0.24,1.86,0.0,0.0,0.0,0,1536,1997,1000,1500,1536,1000,1000,1000,1000,1000,255
-43,133,250454,81.56,19.31,-5.13,-1.1,-0.19,2.09,0.0,0.0,0.0,0,1527,1969,1000,1500,1527,1000,1000,1000,1000,1000,255
-42,134,250481,81.19,17.81,-4.31,-1.25,-0.11,1.93,0.0,0.0,0.0,0,1504,1880,1000,1500,1504,1000,1000,1000,1000,1000,255
-44,131,250511,80.75,15.94,-3.5,-1.25,-0.4,1.62,0.0,0.0,0.0,0,1489,1780,1000,1500,1489,1000,1000,1000,1000,1000,255
-45,133,250526,80.62,15.19,-3.25,-1.22,-0.37,1.72,0.0,0.0,0.0,0,1481,1729,1000,1500,1481,1000,1000,1000,1000,1000,255
-47,130,250556,80.25,12.69,-2.38,-1.33,-0.53,1.38,0.0,0.0,0.0,0,1448,1625,1000,1500,1448,1000,1000,1000,1000,1000,255
-50,133,250590,79.87,9.81,-1.56,-1.41,-0.85,1.34,0.0,0.0,0.0,0,1426,1516,1000,1500,1426,1000,1000,1000,1000,1000,255
-47,136,250605,79.75,7.75,-1.0,-1.32,-0.91,1.26,0.0,0.0,0.0,0,1413,1441,1000,1500,1413,1000,1000,1000,1000,1000,255
-45,131,250636,79.62,4.38,-0.12,-1.3,-0.86,0.82,0.0,0.0,0.0,0,1389,1330,1000,1500,1389,1000,1000,1000,1000,1000,255
-44,135,250667,79.62,-0.5,0.94,-1.51,-0.81,0.65,0.0,0.0,0.0,0,1358,1192,1000,1500,1358,1000,1000,1000,1000,1000,255
-43,131,250695,79.75,-3.13,1.5,-1.83,-0.56,0.54,0.0,0.0,0.0,0,1352,1108,1000,1500,1352,1000,1000,1000,1000,1000,255
-42,130,250711,79.87,-5.75,2.06,-1.79,-0.65,0.75,0.0,0.0,0.0,0,1349,1051,1000,1500,1349,1000,1000,1000,1000,1000,255
-42,132,250739,80.06,-9.75,2.75,-1.94,-0.44,0.17,0.0,0.0,0.0,0,1355,1000,1000,1500,1355,1000,1000,1000,1000,1000,255
-44,133,250789,80.37,-16.31,3.69,-1.67,0.27,-0.81,0.0,0.0,0.0,0,1371,1000,1000,1500,1371,1000,1000,1000,1000,1000,255
-42,131,250806,80.44,-17.56,3.81,-1.58,0.22,-1.13,0.0,0.0,0.0,0,1378,1000,1000,1500,1378,1000,1000,1000,1000,1000,255
-43,131,250836,80.5,-21.25,4.13,-1.29,0.17,-1.31,0.0,0.0,0.0,0,1383,1000,1000,1500,1383,1000,1000,1000,1000,1000,255
-47,129,250853,80.69,-23.56,4.31,-1.22,0.27,-1.46,0.0,0.0,0.0,0,1378,1000,1000,1500,1378,1000,1000,1000,1000,1000,255
-42,130,250881,80.56,-26.81,4.56,-0.89,0.19,-2.07,0.0,0.0,0.0,0,1365,1000,1000,1500,1365,1000,1000,1000,1000,1000,255
-44,129,250910,80.37,-29.69,4.81,-0.57,0.08,-2.29,0.0,0.0,0.0,0,1349,1000,1000,1500,1349,1000,1000,1000,1000,1000,255
-42,129,250940,79.94,-32.13,5.06,-0.53,0.16,-2.38,0.0,0.0,0.0,0,1333,1000,1000,1500,1333,1000,1000,1000,1000,1000,255
-41,129,250988,78.94,-35.19,5.25,0.06,-0.03,-1.82,0.0,0.0,0.0,0,1330,1000,1000,1500,1330,1000,1000,1000,1000,1000,255
-40,130,251004,78.69,-35.69,5.25,0.15,0.01,-2.32,0.0,0.0,0.0,0,1336,1000,1000,1500,1336,1000,1000,1000,1000,1000,255
-41,131,251034,77.94,-36.88,5.19,-0.26,-0.23,-2.38,0.0,0.0,0.0,0,1336,1000,1000,1500,1336,1000,1000,1000,1000,1000,255
-40,130,251065,77.19,-37.88,5.0,-0.1,-0.33,-2.19,0.0,0.0,0.0,0,1352,1000,1000,1500,1352,1000,1000,1000,1000,1000,255
-39,131,251078,76.69,-38.19,4.88,-0.28,0.15,-2.15,0.0,0.0,0.0,0,1358,1000,1000,1500,1358,1000,1000,1000,1000,1000,255
-38,131,251106,76.19,-38.38,4.5,-0.45,-0.2,-2.51,0.0,0.0,0.0,0,1388,1000,1000,1500,1388,1000,1000,1000,1000,1000,255
-37,132,251137,75.56,-38.75,4.0,-0.13,-0.24,-2.28,0.0,0.0,0.0,0,1417,1000,1000,1500,1417,1000,1000,1000,1000,1000,255
-37,129,251186,75.0,-38.44,3.31,-0.23,-0.29,-2.12,0.0,0.0,0.0,0,1476,1000,1000,1500,1476,1000,1000,1000,1000,1000,255
-36,133,251202,74.56,-37.56,2.31,-0.1,-0.19,-2.11,0.0,0.0,0.0,0,1522,1033,1000,1500,1522,1000,1000,1000,1000,1000,255
-37,131,251230,74.19,-36.25,1.19,0.0,-0.6,-1.76,0.0,0.0,0.0,0,1578,1110,1000,1500,1578,1000,1000,1000,1000,1000,255
-37,132,251259,74.0,-34.63,0.0,-0.14,-0.6,-1.41,0.0,0.0,0.0,0,1621,1186,1000,1500,1621,1000,1000,1000,1000,1000,255
-37,133,251275,74.0,-34.06,-0.31,-0.27,-0.67,-1.52,0.0,0.0,0.0,0,1629,1226,1000,1500,1629,1000,1000,1000,1000,1000,255
-37,131,251304,73.87,-32.06,-1.37,-0.36,-0.81,-2.22,0.0,0.0,0.0,0,1660,1315,1000,1500,1660,1000,1000,1000,1000,1000,255
-37,132,251335,74.06,-29.69,-2.38,-0.64,-0.82,-1.28,0.0,0.0,0.0,0,1677,1408,1000,1500,1677,1000,1000,1000,1000,1000,255
-37,132,251385,74.5,-25.19,-3.56,-0.89,-0.53,-1.09,0.0,0.0,0.0,0,1676,1572,1000,1500,1676,1000,1000,1000,1000,1000,255
-37,131,251402,74.75,-23.19,-3.94,-1.02,-0.74,-1.08,0.0,0.0,0.0,0,1684,1626,1000,1500,1684,1000,1000,1000,1000,1000,255
-36,133,251430,75.25,-20.06,-4.5,-0.94,-0.71,-0.88,0.0,0.0,0.0,0,1700,1715,1000,1500,1700,1000,1000,1000,1000,1000,255
-38,132,251461,75.81,-16.87,-5.0,-1.2,-0.31,-1.57,0.0,0.0,0.0,0,1698,1787,1000,1500,1698,1000,1000,1000,1000,1000,255
-38,132,251475,76.19,-14.69,-5.25,-1.26,-0.48,-0.49,0.0,0.0,0.0,0,1689,1843,1000,1500,1689,1000,1000,1000,1000,1000,255
-39,132,251504,76.56,-12.56,-5.44,-1.22,-0.47,-0.16,0.0,0.0,0.0,0,1675,1881,1000,1500,1675,1000,1000,1000,1000,1000,255
-39,130,251536,77.44,-8.44,-5.69,-1.26,-0.49,-0.34,0.0,0.0,0.0,0,1663,1958,1000,1500,1663,1000,1000,1000,1000,1000,255
-40,132,251586,78.31,-4.56,-5.75,-1.34,-0.36,0.31,0.0,0.0,0.0,0,1630,2000,1000,1500,1630,1000,1000,1000,1000,1000,255
-41,132,251602,78.87,-2.75,-5.75,-1.24,-0.29,0.24,0.0,0.0,0.0,0,1623,2000,1000,1500,1623,1000,1000,1000,1000,1000,255
-42,133,251630,79.56,-0.25,-5.56,-1.28,0.0,0.2,0.0,0.0,0.0,0,1602,2000,1000,1500,1602,1000,1000,1000,1000,1000,255
-48,134,251662,80.19,2.06,-5.31,-1.04,-0.17,0.63,0.0,0.0,0.0,0,1568,2000,1000,1500,1568,1000,1000,1000,1000,1000,255
-45,132,251675,80.56,3.5,-5.0,-0.95,-0.13,0.91,0.0,0.0,0.0,0,1541,2000,1000,1500,1541,1000,1000,1000,1000,1000,255
-52,132,251704,80.94,4.81,-4.63,-1.02,0.06,0.62,0.0,0.0,0.0,0,1510,2000,1000,1500,1510,1000,1000,1000,1000,1000,255
-50,131,251736,81.56,7.19,-3.75,-0.78,0.38,1.07,0.0,0.0,0.0,0,1472,2000,1000,1500,1472,1000,1000,1000,1000,1000,255
-51,134,251752,81.69,7.69,-3.44,-0.75,0.38,1.06,0.0,0.0,0.0,0,1460,2000,1000,1500,1460,1000,1000,1000,1000,1000,255
-47,132,251785,82.0,9.44,-2.31,-0.73,0.39,1.81,0.0,0.0,0.0,0,1425,2000,1000,1500,1425,1000,1000,1000,1000,1000,255
-44,130,251815,82.06,10.38,-1.44,-0.94,0.39,1.81,0.0,0.0,0.0,0,1419,2000,1000,1500,1419,1000,1000,1000,1000,1000,255
-46,132,251830,82.06,10.63,-1.19,-0.92,0.5,1.83,0.0,0.0,0.0,0,1419,2000,1000,1500,1419,1000,1000,1000,1000,1000,255
-46,132,251860,82.06,11.0,-0.5,-0.8,0.38,1.95,0.0,0.0,0.0,0,1425,2000,1000,1500,1425,1000,1000,1000,1000,1000,255
-46,135,251888,81.81,11.0,0.06,-0.72,0.19,2.22,0.0,0.0,0.0,0,1437,1943,1000,1500,1437,1000,1000,1000,1000,1000,255
-46,134,251920,81.56,10.56,0.44,-0.75,0.08,2.07,0.0,0.0,0.0,0,1449,1869,1000,1500,1449,1000,1000,1000,1000,1000,255
-46,132,251933,81.44,10.31,0.56,-0.74,0.08,2.12,0.0,0.0,0.0,0,1448,1821,1000,1500,1448,1000,1000,1000,1000,1000,255
-44,137,251980,81.12,8.88,1.0,-0.7,-0.22,1.92,0.0,0.0,0.0,0,1431,1708,1000,1500,1431,1000,1000,1000,1000,1000,255
-44,135,251995,81.0,7.81,1.25,-0.83,-0.56,1.87,0.0,0.0,0.0,0,1418,1648,1000,1500,1418,1000,1000,1000,1000,1000,255
-43,133,252025,80.75,5.13,1.94,-0.9,-0.4,1.14,0.0,0.0,0.0,0,1379,1533,1000,1500,1379,1000,1000,1000,1000,1000,255
-42,132,252054,80.81,3.5,2.38,-1.05,-0.5,1.21,0.0,0.0,0.0,0,1339,1457,1000,1500,1339,1000,1000,1000,1000,1000,255
-42,132,252071,80.75,1.81,2.94,-1.09,-0.5,0.87,0.0,0.0,0.0,0,1319,1407,1000,1500,1319,1000,1000,1000,1000,1000,255
-41,132,252101,80.81,-0.94,3.88,-1.23,-0.28,-0.06,0.0,0.0,0.0,0,1284,1300,1000,1500,1284,1000,1000,1000,1000,1000,255
-40,130,252130,80.81,-3.94,4.81,-1.11,-0.19,-0.31,0.0,0.0,0.0,0,1269,1223,1000,1500,1269,1000,1000,1000,1000,1000,255
-39,131,252178,80.75,-7.0,5.63,-1.02,-0.07,-0.07,0.0,0.0,0.0,0,1265,1145,1000,1500,1265,1000,1000,1000,1000,1000,255
-39,131,252192,80.62,-10.06,6.44,-0.98,0.06,-0.58,0.0,0.0,0.0,0,1264,1085,1000,1500,1264,1000,1000,1000,1000,1000,255
-38,131,252223,80.37,-13.06,7.06,-0.85,-0.03,-0.18,0.0,0.0,0.0,0,1277,1028,1000,1500,1277,1000,1000,1000,1000,1000,255
-37,131,252253,80.25,-16.0,7.5,-0.82,0.01,-0.09,0.0,0.0,0.0,0,1295,1000,1000,1500,1295,1000,1000,1000,1000,1000,255
-36,129,252269,80.12,-18.0,7.63,-0.81,0.06,-0.77,0.0,0.0,0.0,0,1303,1000,1000,1500,1303,1000,1000,1000,1000,1000,255
-37,131,252299,80.0,-20.87,7.69,-0.73,-0.15,-1.15,0.0,0.0,0.0,0,1335,1000,1000,1500,1335,1000,1000,1000,1000,1000,255
-36,130,252327,79.87,-23.56,7.56,-0.79,-0.13,-1.19,0.0,0.0,0.0,0,1360,1000,1000,1500,1360,1000,1000,1000,1000,1000,255
-35,130,252372,79.81,-26.12,7.38,-0.61,-0.13,-1.38,0.0,0.0,0.0,0,1367,1000,1000,1500,1367,1000,1000,1000,1000,1000,255
-35,131,252390,79.81,-28.37,7.19,-0.39,-0.21,-1.6,0.0,0.0,0.0,0,1364,1000,1000,1500,1364,1000,1000,1000,1000,1000,255
-35,131,252422,79.69,-30.25,7.06,-0.2,-0.21,-1.85,0.0,0.0,0.0,0,1354,1000,1000,1500,1354,1000,1000,1000,1000,1000,255
-34,130,252451,79.56,-31.69,7.0,-0.05,-0.41,-1.89,0.0,0.0,0.0,0,1340,1000,1000,1500,1340,1000,1000,1000,1000,1000,255
-34,132,252467,79.5,-32.5,7.06,0.03,-0.44,-1.95,0.0,0.0,0.0,0,1327,1000,1000,1500,1327,1000,1000,1000,1000,1000,255
-34,130,252494,79.37,-33.38,7.25,0.2,-0.48,-2.16,0.0,0.0,0.0,0,1309,1000,1000,1500,1309,1000,1000,1000,1000,1000,255
-34,130,252525,79.25,-33.88,7.44,0.23,-0.51,-2.24,0.0,0.0,0.0,0,1302,1000,1000,1500,1302,1000,1000,1000,1000,1000,255
-34,130,252554,79.12,-34.25,7.56,0.17,-0.57,-2.22,0.0,0.0,0.0,0,1305,1000,1000,1500,1305,1000,1000,1000,1000,1000,255
-33,130,252581,79.0,-35.06,7.56,0.02,-0.58,-2.21,0.0,0.0,0.0,0,1310,1000,1000,1500,1310,1000,1000,1000,1000,1000,255
-33,131,252595,79.12,-35.31,7.56,-0.04,-0.25,-2.21,0.0,0.0,0.0,0,1316,1003,1000,1500,1316,1000,1000,1000,1000,1000,255
-34,131,252625,79.12,-35.25,7.5,-0.23,-0.26,-1.89,0.0,0.0,0.0,0,1337,1051,1000,1500,1337,1000,1000,1000,1000,1000,255
-35,131,252653,79.31,-35.0,7.44,-0.49,-0.27,-1.99,0.0,0.0,0.0,0,1357,1098,1000,1500,1357,1000,1000,1000,1000,1000,255
-35,131,252684,79.62,-33.25,7.19,-0.58,-0.31,-1.8,0.0,0.0,0.0,0,1381,1185,1000,1500,1381,1000,1000,1000,1000,1000,255
-35,131,252701,79.75,-32.69,7.13,-0.67,-0.34,-1.95,0.0,0.0,0.0,0,1387,1216,1000,1500,1387,1000,1000,1000,1000,1000,255
-35,132,252730,80.06,-30.81,6.81,-0.55,-0.33,-1.66,0.0,0.0,0.0,0,1398,1303,1000,1500,1398,1000,1000,1000,1000,1000,255
-36,132,252777,80.44,-28.62,6.5,-0.89,-0.29,-1.91,0.0,0.0,0.0,0,1406,1430,1000,1500,1406,1000,1000,1000,1000,1000,255
-36,130,252791,80.81,-26.06,6.25,-0.9,-0.2,-1.29,0.0,0.0,0.0,0,1412,1497,1000,1500,1412,1000,1000,1000,1000,1000,255
-35,129,252822,81.25,-23.25,5.94,-0.99,-0.11,-1.24,0.0,0.0,0.0,0,1414,1610,1000,1500,1414,1000,1000,1000,1000,1000,255
-37,129,252852,81.62,-20.19,5.69,-1.22,0.04,-0.9,0.0,0.0,0.0,0,1409,1707,1000,1500,1409,1000,1000,1000,1000,1000,255
-38,131,252868,81.81,-18.06,5.56,-1.28,0.0,-0.07,0.0,0.0,0.0,0,1410,1759,1000,1500,1410,1000,1000,1000,1000,1000,255
-37,131,252897,82.0,-14.75,5.38,-1.46,0.14,-0.13,0.0,0.0,0.0,0,1408,1851,1000,1500,1408,1000,1000,1000,1000,1000,255
-40,130,252926,82.25,-11.31,5.19,-1.71,0.23,-0.67,0.0,0.0,0.0,0,1409,1939,1000,1500,1409,1000,1000,1000,1000,1000,255
-40,132,252974,82.37,-7.88,5.0,-1.58,0.22,-1.14,0.0,0.0,0.0,0,1411,2000,1000,1500,1411,1000,1000,1000,1000,1000,255
-41,129,252988,82.44,-4.44,4.81,-1.65,0.01,0.46,0.0,0.0,0.0,0,1410,2000,1000,1500,1410,1000,1000,1000,1000,1000,255
-39,132,253020,82.5,-1.12,4.69,-1.59,0.0,0.76,0.0,0.0,0.0,0,1409,2000,1000,1500,1409,1000,1000,1000,1000,1000,255
-40,130,253050,82.56,1.94,4.63,-1.65,0.17,0.18,0.0,0.0,0.0,0,1410,2000,1000,1500,1410,1000,1000,1000,1000,1000,255
-43,130,253066,82.56,3.94,4.5,-1.59,0.13,0.64,0.0,0.0,0.0,0,1416,2000,1000,1500,1416,1000,1000,1000,1000,1000,255
-41,133,253093,82.56,6.81,4.38,-1.52,-0.07,0.95,0.0,0.0,0.0,0,1426,2000,1000,1500,1426,1000,1000,1000,1000,1000,255
-44,130,253124,82.5,9.31,4.25,-1.54,0.2,0.55,0.0,0.0,0.0,0,1426,2000,1000,1500,1426,1000,1000,1000,1000,1000,255
-43,132,253163,82.44,10.88,4.13,-1.45,0.26,0.8,0.0,0.0,0.0,0,1419,2000,1000,1500,1419,1000,1000,1000,1000,1000,255
-42,131,253184,82.37,13.06,4.13,-1.37,0.17,1.08,0.0,0.0,0.0,0,1408,2000,1000,1500,1408,1000,1000,1000,1000,1000,255
-42,129,253214,82.19,15.44,4.25,-1.18,0.13,1.44,0.0,0.0,0.0,0,1393,2000,1000,1500,1393,1000,1000,1000,1000,1000,255
-41,130,253243,82.0,16.94,4.5,-1.05,0.14,1.58,0.0,0.0,0.0,0,1365,2000,1000,1500,1365,1000,1000,1000,1000,1000,255
-41,129,253259,81.94,17.31,4.63,-1.04,0.2,1.65,0.0,0.0,0.0,0,1355,2000,1000,1500,1355,1000,1000,1000,1000,1000,255
-40,132,253287,81.75,18.31,5.13,-1.02,0.12,1.69,0.0,0.0,0.0,0,1335,2000,1000,1500,1335,1000,1000,1000,1000,1000,255
-41,134,253318,81.5,18.81,5.5,-1.02,0.25,1.79,0.0,0.0,0.0,0,1336,2000,1000,1500,1336,1000,1000,1000,1000,1000,255
-40,131,253346,81.19,18.94,5.88,-1.1,0.16,1.97,0.0,0.0,0.0,0,1335,2000,1000,1500,1335,1000,1000,1000,1000,1000,255
-40,132,253377,80.94,18.56,6.19,-1.05,0.11,2.09,0.0,0.0,0.0,0,1336,2000,1000,1500,1336,1000,1000,1000,1000,1000,255
-41,131,253390,81.0,18.37,6.25,-0.99,0.0,2.0,0.0,0.0,0.0,0,1341,2000,1000,1500,1341,1000,1000,1000,1000,1000,255
-41,132,253421,80.81,17.37,6.38,-1.05,0.03,1.78,0.0,0.0,0.0,0,1346,1925,1000,1500,1346,1000,1000,1000,1000,1000,255
-43,131,253451,80.81,16.06,6.44,-1.16,0.07,1.65,0.0,0.0,0.0,0,1350,1835,1000,1500,1350,1000,1000,1000,1000,1000,255
-41,130,253466,80.75,14.94,6.38,-1.26,0.04,1.47,0.0,0.0,0.0,0,1354,1791,1000,1500,1354,1000,1000,1000,1000,1000,255
-43,130,253495,80.81,12.81,6.31,-1.37,0.04,1.19,0.0,0.0,0.0,0,1374,1693,1000,1500,1374,1000,1000,1000,1000,1000,255
-43,130,253524,80.87,10.38,6.13,-1.41,0.02,1.02,0.0,0.0,0.0,0,1390,1599,1000,1500,1390,1000,1000,1000,1000,1000,255
-41,132,253572,80.94,7.56,5.81,-1.47,-0.07,0.56,0.0,0.0,0.0,0,1402,1489,1000,1500,1402,1000,1000,1000,1000,1000,255
-41,131,253586,81.06,4.63,5.56,-1.42,-0.11,0.23,0.0,0.0,0.0,0,1402,1404,1000,1500,1402,1000,1000,1000,1000,1000,255
-40,131,253618,81.25,1.44,5.44,-1.56,0.09,0.59,0.0,0.0,0.0,0,1387,1307,1000,1500,1387,1000,1000,1000,1000,1000,255
-38,130,253648,81.62,-1.75,5.44,-1.68,-0.06,1.05,0.0,0.0,0.0,0,1376,1233,1000,1500,1376,1000,1000,1000,1000,1000,255
-38,133,253664,81.75,-4.0,5.5,-1.57,-0.03,0.48,0.0,0.0,0.0,0,1373,1170,1000,1500,1373,1000,1000,1000,1000,1000,255
-37,131,253691,82.0,-6.25,5.56,-1.57,0.14,-0.09,0.0,0.0,0.0,0,1370,1120,1000,1500,1370,1000,1000,1000,1000,1000,255
-36,131,253722,82.25,-10.69,5.69,-1.51,0.2,-0.37,0.0,0.0,0.0,0,1369,1029,1000,1500,1369,1000,1000,1000,1000,1000,255
-35,131,253770,82.37,-12.88,5.69,-1.42,0.32,-0.8,0.0,0.0,0.0,0,1380,1000,1000,1500,1380,1000,1000,1000,1000,1000,255
-35,131,253785,82.56,-17.19,5.69,-1.25,0.23,-0.61,0.0,0.0,0.0,0,1399,1000,1000,1500,1399,1000,1000,1000,1000,1000,255
-34,133,253816,82.69,-20.31,5.5,-1.07,0.01,-0.67,0.0,0.0,0.0,0,1414,1000,1000,1500,1414,1000,1000,1000,1000,1000,255
-33,130,253846,82.87,-23.31,5.25,-1.06,-0.04,-1.04,0.0,0.0,0.0,0,1435,1000,1000,1500,1435,1000,1000,1000,1000,1000,255
-33,129,253860,82.87,-24.31,5.19,-0.89,-0.02,-1.28,0.0,0.0,0.0,0,1437,1000,1000,1500,1437,1000,1000,1000,1000,1000,255
-32,128,253889,83.06,-27.0,4.88,-0.63,0.02,-1.45,0.0,0.0,0.0,0,1435,1000,1000,1500,1435,1000,1000,1000,1000,1000,255
-32,129,253920,83.06,-29.44,4.75,-0.67,-0.03,-1.69,0.0,0.0,0.0,0,1408,1000,1000,1500,1408,1000,1000,1000,1000,1000,255
-31,133,253968,83.06,-31.5,4.69,-0.38,-0.01,-1.91,0.0,0.0,0.0,0,1389,1000,1000,1500,1389,1000,1000,1000,1000,1000,255
-32,133,253982,82.87,-33.63,4.81,-0.06,-0.19,-2.04,0.0,0.0,0.0,0,1370,1000,1000,1500,1370,1000,1000,1000,1000,1000,255
-31,129,254013,82.69,-34.81,4.94,0.01,-0.28,-2.24,0.0,0.0,0.0,0,1363,1000,1000,1500,1363,1000,1000,1000,1000,1000,255
-31,133,254041,82.56,-35.38,5.06,0.11,-0.06,-2.13,0.0,0.0,0.0,0,1349,1000,1000,1500,1349,1000,1000,1000,1000,1000,255
-31,131,254058,82.44,-35.75,5.19,0.42,-0.22,-2.11,0.0,0.0,0.0,0,1343,1000,1000,1500,1343,1000,1000,1000,1000,1000,255
-31,133,254086,82.12,-36.0,5.44,-0.12,-0.06,-2.08,0.0,0.0,0.0,0,1332,1000,1000,1500,1332,1000,1000,1000,1000,1000,255
-30,130,254116,81.87,-36.69,5.75,-0.16,0.01,-1.88,0.0,0.0,0.0,0,1333,1000,1000,1500,1333,1000,1000,1000,1000,1000,255
-31,130,254151,81.69,-36.94,6.0,-0.25,-0.06,-1.93,0.0,0.0,0.0,0,1343,1000,1000,1500,1343,1000,1000,1000,1000,1000,255
-31,131,254173,81.56,-36.94,6.06,-0.41,-0.06,-2.03,0.0,0.0,0.0,0,1361,1000,1000,1500,1361,1000,1000,1000,1000,1000,255
-31,129,254200,81.62,-36.81,6.06,-0.53,-0.1,-1.97,0.0,0.0,0.0,0,1389,1040,1000,1500,1389,1000,1000,1000,1000,1000,255
-31,129,254231,81.56,-35.63,5.56,-0.68,-0.07,-1.65,0.0,0.0,0.0,0,1430,1109,1000,1500,1430,1000,1000,1000,1000,1000,255
-32,129,254248,81.62,-35.13,5.38,-0.73,-0.15,-1.46,0.0,0.0,0.0,0,1444,1132,1000,1500,1444,1000,1000,1000,1000,1000,255
-32,131,254277,81.69,-33.56,4.69,-0.76,-0.16,-1.39,0.0,0.0,0.0,0,1486,1204,1000,1500,1486,1000,1000,1000,1000,1000,255
-32,129,254308,81.75,-31.69,3.81,-0.81,0.0,-1.48,0.0,0.0,0.0,0,1524,1286,1000,1500,1524,1000,1000,1000,1000,1000,255
-32,130,254336,81.94,-29.56,2.94,-0.91,0.01,-1.1,0.0,0.0,0.0,0,1554,1367,1000,1500,1554,1000,1000,1000,1000,1000,255
-33,129,254371,82.12,-27.19,2.0,-1.13,0.11,-0.99,0.0,0.0,0.0,0,1578,1469,1000,1500,1578,1000,1000,1000,1000,1000,255
-33,129,254385,82.19,-25.44,1.37,-1.07,0.01,-0.69,0.0,0.0,0.0,0,1593,1516,1000,1500,1593,1000,1000,1000,1000,1000,255
-33,131,254416,82.31,-22.69,0.44,-1.17,0.04,-0.6,0.0,0.0,0.0,0,1609,1604,1000,1500,1609,1000,1000,1000,1000,1000,255
-34,131,254447,82.37,-19.81,-0.37,-1.38,0.1,-0.39,0.0,0.0,0.0,0,1618,1687,1000,1500,1618,1000,1000,1000,1000,1000,255
-34,131,254461,82.37,-17.75,-0.88,-1.38,-0.1,-0.62,0.0,0.0,0.0,0,1622,1743,1000,1500,1622,1000,1000,1000,1000,1000,255
-35,132,254490,82.37,-15.75,-1.37,-1.27,-0.08,0.44,0.0,0.0,0.0,0,1622,1790,1000,1500,1622,1000,1000,1000,1000,1000,255
-34,131,254521,82.25,-11.63,-2.25,-1.44,-0.14,-0.06,0.0,0.0,0.0,0,1632,1883,1000,1500,1632,1000,1000,1000,1000,1000,255
-36,130,254570,82.12,-7.63,-2.94,-1.6,-0.37,0.62,0.0,0.0,0.0,0,1611,1956,1000,1500,1611,1000,1000,1000,1000,1000,255
-36,129,254584,82.06,-5.69,-3.13,-1.57,-0.3,0.57,0.0,0.0,0.0,0,1606,1992,1000,1500,1606,1000,1000,1000,1000,1000,255
-39,130,254616,82.06,-2.88,-3.25,-1.58,-0.32,0.48,0.0,0.0,0.0,0,1581,2000,1000,1500,1581,1000,1000,1000,1000,1000,255
-40,131,254647,82.12,-0.25,-3.19,-1.62,-0.25,0.4,0.0,0.0,0.0,0,1548,2000,1000,1500,1548,1000,1000,1000,1000,1000,255
-41,131,254661,82.12,1.31,-3.0,-1.59,-0.17,0.26,0.0,0.0,0.0,0,1525,2000,1000,1500,1525,1000,1000,1000,1000,1000,255
-42,129,254689,82.19,2.88,-2.75,-1.56,-0.14,0.48,0.0,0.0,0.0,0,1489,2000,1000,1500,1489,1000,1000,1000,1000,1000,255
-43,131,254721,82.19,5.0,-2.13,-1.43,0.11,0.8,0.0,0.0,0.0,0,1444,2000,1000,1500,1444,1000,1000,1000,1000,1000,255
-44,129,254770,82.19,8.19,-0.69,-1.27,0.1,0.73,0.0,0.0,0.0,0,1379,2000,1000,1500,1379,1000,1000,1000,1000,1000,255
-44,131,254783,82.19,9.25,0.0,-1.3,0.33,0.55,0.0,0.0,0.0,0,1362,2000,1000,1500,1362,1000,1000,1000,1000,1000,255
-44,130,254816,82.12,10.63,0.94,-1.15,0.14,0.78,0.0,0.0,0.0,0,1343,2000,1000,1500,1343,1000,1000,1000,1000,1000,255
-43,131,254846,82.0,11.69,1.88,-1.03,0.2,1.11,0.0,0.0,0.0,0,1342,2000,1000,1500,1342,1000,1000,1000,1000,1000,255
-43,133,254860,81.87,12.19,2.44,-1.15,0.37,1.15,0.0,0.0,0.0,0,1344,2000,1000,1500,1344,1000,1000,1000,1000,1000,255
-40,130,254888,81.81,12.56,2.88,-1.06,0.26,1.22,0.0,0.0,0.0,0,1365,2000,1000,1500,1365,1000,1000,1000,1000,1000,255
-43,131,254919,81.62,12.81,3.38,-1.1,0.28,1.25,0.0,0.0,0.0,0,1393,2000,1000,1500,1393,1000,1000,1000,1000,1000,255
-42,132,254968,81.31,12.81,3.63,-1.02,0.14,1.45,0.0,0.0,0.0,0,1432,1930,1000,1500,1432,1000,1000,1000,1000,1000,255
-43,130,254983,81.19,12.5,3.56,-1.06,0.03,1.52,0.0,0.0,0.0,0,1437,1908,1000,1500,1437,1000,1000,1000,1000,1000,255
-42,131,255012,81.06,11.81,3.44,-0.96,-0.11,1.58,0.0,0.0,0.0,0,1444,1849,1000,1500,1444,1000,1000,1000,1000,1000,255
-42,134,255041,80.94,10.69,3.25,-0.9,-0.11,1.43,0.0,0.0,0.0,0,1440,1774,1000,1500,1440,1000,1000,1000,1000,1000,255
-39,130,255057,80.94,10.19,3.25,-1.05,-0.29,1.71,0.0,0.0,0.0,0,1432,1745,1000,1500,1432,1000,1000,1000,1000,1000,255
-41,131,255085,80.94,8.63,3.31,-1.19,-0.22,0.98,0.0,0.0,0.0,0,1407,1663,1000,1500,1407,1000,1000,1000,1000,1000,255
-40,130,255117,80.94,6.56,3.56,-1.1,-0.31,0.72,0.0,0.0,0.0,0,1376,1578,1000,1500,1376,1000,1000,1000,1000,1000,255
-38,129,255166,81.06,3.5,4.25,-1.36,-0.37,0.79,0.0,0.0,0.0,0,1303,1453,1000,1500,1303,1000,1000,1000,1000,1000,255
-36,132,255180,81.19,0.94,5.06,-1.32,-0.41,0.81,0.0,0.0,0.0,0,1267,1383,1000,1500,1267,1000,1000,1000,1000,1000,255
-36,130,255212,81.25,-1.75,6.06,-1.56,-0.29,-0.04,0.0,0.0,0.0,0,1218,1301,1000,1500,1218,1000,1000,1000,1000,1000,255
-36,129,255240,81.31,-4.56,7.25,-1.63,-0.15,-0.37,0.0,0.0,0.0,0,1171,1230,1000,1500,1171,1000,1000,1000,1000,1000,255
-35,131,255256,81.31,-5.5,7.69,-1.57,-0.18,-0.16,0.0,0.0,0.0,0,1157,1212,1000,1500,1157,1000,1000,1000,1000,1000,255
-35,130,255285,81.25,-8.31,9.0,-1.35,-0.26,-0.24,0.0,0.0,0.0,0,1118,1152,1000,1500,1118,1000,1000,1000,1000,1000,255
-34,129,255315,81.06,-11.13,10.44,-1.29,-0.13,-0.56,0.0,0.0,0.0,0,1069,1097,1000,1500,1069,1000,1000,1000,1000,1000,255
-34,130,255368,80.62,-15.56,13.06,-0.97,-0.13,-0.64,0.0,0.0,0.0,0,1001,1021,1000,1500,1001,1000,1000,1000,1000,1000,255
-33,129,255381,80.44,-17.25,14.06,-1.14,-0.06,-0.84,0.0,0.0,0.0,0,1000,1000,1000,1500,1000,1000,1000,1000,1000,1000,255
-33,133,255413,80.0,-19.75,15.44,-0.86,-0.03,-1.18,0.0,0.0,0.0,0,1000,1000,1000,1500,1000,1000,1000,1000,1000,1000,255
-33,129,255442,79.75,-22.12,16.5,-0.74,0.0,-1.29,0.0,0.0,0.0,0,1000,1000,1000,1500,1000,1000,1000,1000,1000,1000,255
-32,129,255458,79.62,-22.87,16.81,-0.73,0.01,-0.86,0.0,0.0,0.0,0,1016,1000,1000,1500,1016,1000,1000,1000,1000,1000,255
-32,132,255485,79.25,-25.0,17.56,-0.59,-0.07,-1.27,0.0,0.0,0.0,0,1023,1000,1000,1500,1023,1000,1000,1000,1000,1000,255
-32,130,255516,78.87,-26.87,18.12,-0.31,-0.07,-1.23,0.0,0.0,0.0,0,1036,1000,1000,1500,1036,1000,1000,1000,1000,1000,255
-32,132,255566,78.31,-29.31,18.56,-0.2,-0.22,-1.42,0.0,0.0,0.0,0,1069,1000,1000,1500,1069,1000,1000,1000,1000,1000,255
-31,129,255581,78.12,-30.06,18.56,-0.08,-0.19,-1.37,0.0,0.0,0.0,0,1081,1000,1000,1500,1081,1000,1000,1000,1000,1000,255
-31,130,255612,78.0,-30.87,18.5,-0.07,-0.32,-1.63,0.0,0.0,0.0,0,1103,1000,1000,1500,1103,1000,1000,1000,1000,1000,255
-31,133,255641,77.94,-31.44,18.25,-0.09,-0.35,-1.78,0.0,0.0,0.0,0,1133,1000,1000,1500,1133,1000,1000,1000,1000,1000,255
-31,130,255657,77.94,-31.5,18.12,-0.1,-0.31,-1.83,0.0,0.0,0.0,0,1153,1003,1000,1500,1153,1000,1000,1000,1000,1000,255
-32,131,255685,77.94,-31.75,17.75,-0.14,-0.26,-1.89,0.0,0.0,0.0,0,1175,1028,1000,1500,1175,1000,1000,1000,1000,1000,255
-32,132,255716,78.0,-32.0,17.31,-0.18,-0.23,-1.92,0.0,0.0,0.0,0,1202,1071,1000,1500,1202,1000,1000,1000,1000,1000,255
-32,130,255766,78.25,-31.31,16.12,-0.53,-0.39,-2.08,0.0,0.0,0.0,0,1265,1171,1000,1500,1265,1000,1000,1000,1000,1000,255
-32,130,255780,78.37,-30.5,15.31,-0.62,-0.4,-1.7,0.0,0.0,0.0,0,1303,1225,1000,1500,1303,1000,1000,1000,1000,1000,255
-33,130,255812,78.62,-28.94,14.0,-0.68,-0.42,-1.41,0.0,0.0,0.0,0,1362,1311,1000,1500,1362,1000,1000,1000,1000,1000,255
